{"network":{"company":["ClearChannel"],"href":"/v2/networks/malmobybike","id":"malmobybike","location":{"city":"Malm\u00f6","country":"SE","latitude":55.605,"longitude":13.0038},"name":"Malm\u00f6 by bike","stations":[{"empty_slots":3,"extra":{"address":"Skeppsbron","status":"OPN","uid":1},"free_bikes":21,"id":"87492ed48d78c573f95e99bc7f87ac9d","latitude":55.60899,"longitude":12.99907,"name":"Malm\u00f6 C Norra","timestamp":"2023-10-18T09:12:27.153000Z"},{"empty_slots":9,"extra":{"address":"Skeppsbron","status":"OPN","uid":2},"free_bikes":12,"id":"75a3dd9c59d18e7a7f9779415680ad52","latitude":55.60865,"longitude":12.99927,"name":"Malm\u00f6 C S\u00f6dra","timestamp":"2023-10-18T09:12:27.194000Z"},{"empty_slots":6,"extra":{"address":"Hj\u00e4lmaregatan","status":"OPN","uid":3},"free_bikes":18,"id":"ac078131599687e9a8bed1e0f330388a","latitude":55.60819,"longitude":12.9967,"name":"Bagers plats","timestamp":"2023-10-18T09:12:27.208000Z"},{"empty_slots":14,"extra":{"address":"Engelbrektsgatan","status":"OPN","uid":4},"free_bikes":10,"id":"87344d5713e67b26d9eda9a6258e1242","latitude":55.60421,"longitude":12.99799,"name":"Engelbrektsgatan 13","timestamp":"2023-10-18T09:12:27.217000Z"},{"empty_slots":5,"extra":{"address":"Stortorget","status":"OPN","uid":5},"free_bikes":19,"id":"f360ddbbedfd08b1cf948b3f85b3b658","latitude":55.60647,"longitude":12.9998,"name":"Stortorget","timestamp":"2023-10-18T09:12:27.224000Z"},{"empty_slots":12,"extra":{"address":"\u00d6stergatan","status":"OPN","uid":6},"free_bikes":12,"id":"f28db720c7af5c1b5eded196d97709cd","latitude":55.60782,"longitude":13.00852,"name":"\u00d6stergatan 1","timestamp":"2023-10-18T09:12:27.232000Z"},{"empty_slots":16,"extra":{"address":"\u00d6stra Promenaden","status":"OPN","uid":7},"free_bikes":8,"id":"7f726034ba1ec84d524970f2a4bc1268","latitude":55.60821,"longitude":13.01279,"name":"\u00d6stra Promenaden 3","timestamp":"2023-10-18T09:12:27.241000Z"},{"empty_slots":20,"extra":{"address":"Stora Nygatan","status":"OPN","uid":8},"free_bikes":4,"id":"dff25895874a27d3a613e84d2aaff0d9","latitude":55.60428,"longitude":13.00904,"name":"Stora Nygatan 5","timestamp":"2023-10-18T09:12:27.249000Z"},{"empty_slots":21,"extra":{"address":"Snapperupsgatan","status":"OPN","uid":9},"free_bikes":3,"id":"3924b37385f305768ccc2e349efa5374","latitude":55.60514,"longitude":13.00685,"name":"Baltzargatan","timestamp":"2023-10-18T09:12:27.250000Z"},{"empty_slots":9,"extra":{"address":"S\u00f6dra Promenaden","status":"OPN","uid":10},"free_bikes":18,"id":"521cf8a699b137f484b75fd7aface106","latitude":55.60245,"longitude":13.00405,"name":"Raoul Wallenbergs park","timestamp":"2023-10-18T09:12:27.251000Z"},{"empty_slots":9,"extra":{"address":"Stadt Hamburgsgatan","status":"OPN","uid":11},"free_bikes":15,"id":"388b4991a13d4f2274bc409b80391336","latitude":55.60282,"longitude":13.002,"name":"Gustav Adolfs Torg","timestamp":"2023-10-18T09:12:27.256000Z"},{"empty_slots":24,"extra":{"address":"Storgatan","status":"CLS","uid":12},"free_bikes":0,"id":"68c984cda953d8b73415fa138fb83c2b","latitude":55.5999,"longitude":13.00174,"name":"Storgatan 22","timestamp":"2023-10-18T09:12:27.263000Z"},{"empty_slots":3,"extra":{"address":"Kungsgatan","status":"OPN","uid":13},"free_bikes":21,"id":"10937829b6ffad87fc9dc1cc939be72a","latitude":55.60251,"longitude":13.01209,"name":"Kungsgatan 13","timestamp":"2023-10-18T09:12:27.269000Z"},{"empty_slots":7,"extra":{"address":"Kungsgatan","status":"OPN","uid":14},"free_bikes":17,"id":"05d219453fa58ac21be63a3c07c9d7b1","latitude":55.60055,"longitude":13.00678,"name":"Kungsgatan 6","timestamp":"2023-10-18T09:12:27.269000Z"},{"empty_slots":13,"extra":{"address":"Kaptensgatan","status":"OPN","uid":15},"free_bikes":11,"id":"b337e4dae9ed9dcaf203e489722b6182","latitude":55.59857,"longitude":13.00624,"name":"Stadshuset","timestamp":"2023-10-18T09:12:27.270000Z"},{"empty_slots":19,"extra":{"address":"Sp\u00e5ngtatan","status":"OPN","uid":16},"free_bikes":3,"id":"5b85a3c0eb1281df32888af119a116f3","latitude":55.59557,"longitude":13.00322,"name":"S\u00f6dra F\u00f6rstadsgatan 54","timestamp":"2023-10-18T09:12:27.271000Z"},{"empty_slots":11,"extra":{"address":"Pildammsv\u00e4gen","status":"OPN","uid":17},"free_bikes":13,"id":"9b33886833f981964f169512095849ef","latitude":55.59545,"longitude":12.99708,"name":"Malm\u00f6 IP","timestamp":"2023-10-18T09:12:27.272000Z"},{"empty_slots":20,"extra":{"address":"Klerkgatan","status":"OPN","uid":18},"free_bikes":7,"id":"236ac8f5872a312cfb13c3d3013533be","latitude":55.5938,"longitude":13.00047,"name":"Station Triangeln Norra","timestamp":"2023-10-18T09:12:27.273000Z"},{"empty_slots":22,"extra":{"address":"Amiralsgatan","status":"OPN","uid":19},"free_bikes":2,"id":"3654879637eb49bc92ec40a53de3120f","latitude":55.59579,"longitude":13.01269,"name":"Folkets park","timestamp":"2023-10-18T09:12:27.273000Z"},{"empty_slots":22,"extra":{"address":"Riggaregatan","status":"OPN","uid":20},"free_bikes":5,"id":"e81ca4cd0370ddf541c882ced3f0f9f3","latitude":55.61671,"longitude":12.97512,"name":"Scaniabadet","timestamp":"2023-10-18T09:12:27.274000Z"},{"empty_slots":14,"extra":{"address":"\u00d6stra varvs gr\u00e4nd","status":"OPN","uid":21},"free_bikes":4,"id":"82148faefacba0389fda355b326607f2","latitude":55.61506,"longitude":12.98535,"name":"p-huset Ub\u00e5ten","timestamp":"2023-10-18T09:12:27.277000Z"},{"empty_slots":11,"extra":{"address":"Dockplatsen","status":"OPN","uid":22},"free_bikes":13,"id":"203ae78f3d575bad3a4eca0c31ab0835","latitude":55.61451,"longitude":12.99019,"name":"Isbergs gata","timestamp":"2023-10-18T09:12:27.278000Z"},{"empty_slots":16,"extra":{"address":"Hamnparken","status":"OPN","uid":23},"free_bikes":8,"id":"3951d273aa262093e90dfb287b70b1fe","latitude":55.6164,"longitude":12.99631,"name":"Saltimporten","timestamp":"2023-10-18T09:12:27.279000Z"},{"empty_slots":18,"extra":{"address":"Slagthuset","status":"OPN","uid":24},"free_bikes":6,"id":"050647fc404707c6b095826d54546ff4","latitude":55.61161,"longitude":13.00129,"name":"J\u00f6rgen Kocksgatan","timestamp":"2023-10-18T09:12:27.280000Z"},{"empty_slots":7,"extra":{"address":"Nordenski\u00f6ldsgatan","status":"OPN","uid":25},"free_bikes":11,"id":"d734328071627d6499154f6b43ee1927","latitude":55.60979,"longitude":12.99495,"name":"Nordenski\u00f6ldsgatan 8","timestamp":"2023-10-18T09:12:27.281000Z"},{"empty_slots":0,"extra":{"address":"Stora Varvsgatan","status":"OPN","uid":26},"free_bikes":20,"id":"6d7a7858d1a32c596e044a9737c9a9f5","latitude":55.61245,"longitude":12.99314,"name":"Klaffbron","timestamp":"2023-10-18T09:12:27.285000Z"},{"empty_slots":15,"extra":{"address":"Masttorget","status":"OPN","uid":27},"free_bikes":9,"id":"2ad37e8923ee1a83e8aaecd4e314de21","latitude":55.61125,"longitude":12.98083,"name":"Masttorget","timestamp":"2023-10-18T09:12:27.287000Z"},{"empty_slots":21,"extra":{"address":"Turning Torso","status":"OPN","uid":28},"free_bikes":2,"id":"7823afc700d6f6fb4ae8c6dc3f3112b5","latitude":55.61302,"longitude":12.97619,"name":"Lilla Varvsgatan 14","timestamp":"2023-10-18T09:12:27.287000Z"},{"empty_slots":12,"extra":{"address":"Propellergatan","status":"OPN","uid":29},"free_bikes":12,"id":"2548f74536c5987bf6ac6fe7598668d8","latitude":55.6097,"longitude":12.97531,"name":"Propellergatan 9","timestamp":"2023-10-18T09:12:27.290000Z"},{"empty_slots":14,"extra":{"address":"Ribersborgsstigen","status":"OPN","uid":30},"free_bikes":10,"id":"16d02a0b5c2776fb8360664abaad37a4","latitude":55.60258,"longitude":12.9679,"name":"Ribersborg Kallbadhus","timestamp":"2023-10-18T09:12:27.291000Z"},{"empty_slots":11,"extra":{"address":"Mariedalsv\u00e4gen","status":"OPN","uid":31},"free_bikes":16,"id":"1cdc0b82e725d6e0ba691a47a61dee8f","latitude":55.60553,"longitude":12.97845,"name":"Ribersborgsstigen","timestamp":"2023-10-18T09:12:27.291000Z"},{"empty_slots":12,"extra":{"address":"Malm\u00f6hus slott","status":"OPN","uid":32},"free_bikes":12,"id":"679926a67f74c6143edf968a5d8b3110","latitude":55.60552,"longitude":12.98619,"name":"Malm\u00f6husv\u00e4gen","timestamp":"2023-10-18T09:12:27.297000Z"},{"empty_slots":13,"extra":{"address":"Kung Oskars V\u00e4g","status":"OPN","uid":33},"free_bikes":10,"id":"8c86a5f36949c77a785d764c731724a3","latitude":55.60094,"longitude":12.99401,"name":"Stadsbiblioteket","timestamp":"2023-10-18T09:12:27.298000Z"},{"empty_slots":22,"extra":{"address":"Carl Gustafs V\u00e4g","status":"OPN","uid":34},"free_bikes":1,"id":"56e15f67c660962957a341994a17580f","latitude":55.59723,"longitude":12.98915,"name":"H\u00e4sthagens Idrottsplats","timestamp":"2023-10-18T09:12:27.300000Z"},{"empty_slots":21,"extra":{"address":"Nils Perssons plan","status":"OPN","uid":35},"free_bikes":3,"id":"a419cd4e25b24d22503d18ff1dda331f","latitude":55.59755,"longitude":12.98308,"name":"Kronprinsen/Nils Perssons plan","timestamp":"2023-10-18T09:12:27.301000Z"},{"empty_slots":17,"extra":{"address":"Regementsgatan","status":"OPN","uid":36},"free_bikes":7,"id":"86fc71208b0efece8edb9a56113f9ddc","latitude":55.59821,"longitude":12.97873,"name":"Skvadronsgatan","timestamp":"2023-10-18T09:12:27.302000Z"},{"empty_slots":19,"extra":{"address":"Beridaregatan","status":"OPN","uid":37},"free_bikes":5,"id":"ceecc4763ce950800750c2ba448daf0a","latitude":55.59564,"longitude":12.97761,"name":"R\u00f6nneholmsparken","timestamp":"2023-10-18T09:12:27.303000Z"},{"empty_slots":19,"extra":{"address":"Kilian Zollsgatan","status":"OPN","uid":38},"free_bikes":5,"id":"5f62a0e7a73a781ee3278db3830f1923","latitude":55.59844,"longitude":12.9719,"name":"Fridhemstorget","timestamp":"2023-10-18T09:12:27.305000Z"},{"empty_slots":16,"extra":{"address":"Smedjegatan","status":"OPN","uid":39},"free_bikes":8,"id":"c90f02a2e7b66cf614dc3a682f5bc525","latitude":55.59185,"longitude":13.00266,"name":"Station Triangeln S\u00f6dra","timestamp":"2023-10-18T09:12:27.305000Z"},{"empty_slots":26,"extra":{"address":"Ystadsgatan","status":"OPN","uid":40},"free_bikes":4,"id":"ae11a15a152f955684dd6e3486d4af74","latitude":55.59124,"longitude":13.00853,"name":"M\u00f6llev\u00e5ngstorget","timestamp":"2023-10-18T09:12:27.313000Z"},{"empty_slots":23,"extra":{"address":"Magasingatan","status":"OPN","uid":41},"free_bikes":1,"id":"c41dcc1ebf619affa974796e99cf6f92","latitude":55.59013,"longitude":12.93573,"name":"Limhamns sj\u00f6stad","timestamp":"2023-10-18T09:12:27.314000Z"},{"empty_slots":19,"extra":{"address":"Sp\u00e5rv\u00e4gsgatan","status":"OPN","uid":42},"free_bikes":5,"id":"dc5a44fc32b554c82be86687ad42e017","latitude":55.58793,"longitude":13.00886,"name":"S\u00f6derv\u00e4rn \u00f6ster","timestamp":"2023-10-18T09:12:27.315000Z"},{"empty_slots":22,"extra":{"address":"S\u00f6dra F\u00f6rstadsgatan","status":"OPN","uid":43},"free_bikes":2,"id":"114826020851ce451314a968b66f51f8","latitude":55.586,"longitude":13.00563,"name":"Flensburgsgatan","timestamp":"2023-10-18T09:12:27.316000Z"},{"empty_slots":19,"extra":{"address":"Ystadv\u00e4gen","status":"OPN","uid":44},"free_bikes":5,"id":"bc98e4edd8d304a4674898b4300e203f","latitude":55.58251,"longitude":13.01467,"name":"Sevedsplan","timestamp":"2023-10-18T09:12:27.317000Z"},{"empty_slots":8,"extra":{"address":"Ystadv\u00e4gen","status":"OPN","uid":45},"free_bikes":10,"id":"a66ae6a70e27f48cad21d948d224e54b","latitude":55.5797,"longitude":13.01976,"name":"Lantmannagatan","timestamp":"2023-10-18T09:12:27.317000Z"},{"empty_slots":22,"extra":{"address":"Per Albin Hanssons v\u00e4g 34","status":"OPN","uid":46},"free_bikes":2,"id":"d610d0c3b3195941b7ec33be7165d68f","latitude":55.58133,"longitude":13.00273,"name":"Mobillia","timestamp":"2023-10-18T09:12:27.324000Z"},{"empty_slots":15,"extra":{"address":"John Ericssons V\u00e4g","status":"OPN","uid":47},"free_bikes":9,"id":"00d9b91c1951f6573b62abfe9d042eba","latitude":55.58745,"longitude":12.99193,"name":"Pildammsparken","timestamp":"2023-10-18T09:12:27.324000Z"},{"empty_slots":19,"extra":{"address":"Nobeltorget","status":"OPN","uid":48},"free_bikes":5,"id":"80bcb01930e6ceb4f70d667927fc282c","latitude":55.59185,"longitude":13.01908,"name":"Nobeltorget","timestamp":"2023-10-18T09:12:27.325000Z"},{"empty_slots":21,"extra":{"address":"R\u00f6nnen","status":"OPN","uid":49},"free_bikes":3,"id":"3551cee43642a0b17a5a99b28e80e370","latitude":55.6007,"longitude":13.02755,"name":"Celsiusgatan 29","timestamp":"2023-10-18T09:12:27.326000Z"},{"empty_slots":22,"extra":{"address":"V\u00e4rnhemstorget","status":"OPN","uid":50},"free_bikes":1,"id":"475d0135650ef7a91ca5707501ebcc1f","latitude":55.6052,"longitude":13.02483,"name":"Sallerupsv\u00e4gen 1","timestamp":"2023-10-18T09:12:27.327000Z"},{"empty_slots":7,"extra":{"address":"Stora Varvsgatan","status":"OPN","uid":51},"free_bikes":16,"id":"7020ac04a4967b41a03bc085c5c3bc31","latitude":55.61202,"longitude":12.98856,"name":"G\u00e4ngtappen","timestamp":"2023-10-18T09:12:27.333000Z"},{"empty_slots":18,"extra":{"address":"Disponentgatan ","status":"OPN","uid":52},"free_bikes":6,"id":"9aa564b83bcf82a4dde09b892c66c873","latitude":55.59801,"longitude":13.01536,"name":"St Knut","timestamp":"2023-10-18T09:12:27.335000Z"},{"empty_slots":18,"extra":{"address":"Kungsgatan ","status":"OPN","uid":53},"free_bikes":6,"id":"8c1bee2a8e17473ed9cc7762feac724c","latitude":55.60374,"longitude":13.01717,"name":"R\u00f6rsj\u00f6parken","timestamp":"2023-10-18T09:12:27.336000Z"},{"empty_slots":27,"extra":{"address":"Kungsgatan ","status":"OPN","uid":54},"free_bikes":2,"id":"cf6ea52767a90764e694ed1922b559e3","latitude":55.60518,"longitude":13.02122,"name":"V\u00e4rnhemstorget V","timestamp":"2023-10-18T09:12:27.338000Z"},{"empty_slots":23,"extra":{"address":"Erikslustv\u00e4gen ","status":"OPN","uid":55},"free_bikes":7,"id":"ab5485323da35b2642853d9a9da50530","latitude":55.59471,"longitude":12.96758,"name":"Erikslust","timestamp":"2023-10-18T09:12:27.339000Z"},{"empty_slots":11,"extra":{"address":"Pildammsv\u00e4gen","status":"OPN","uid":56},"free_bikes":13,"id":"d2213f1995af862c67fc157c0e705e24","latitude":55.592,"longitude":12.99747,"name":"Pildammsparken N","timestamp":"2023-10-18T09:12:27.339000Z"},{"empty_slots":21,"extra":{"address":"Trollen\u00e4sgatan ","status":"OPN","uid":57},"free_bikes":3,"id":"8ad3b2b60207fe5679ce21b1df77d391","latitude":55.58869,"longitude":12.96041,"name":"Fair Play stadion","timestamp":"2023-10-18T09:12:27.340000Z"},{"empty_slots":20,"extra":{"address":"K\u00f6penhamnsv\u00e4gen","status":"OPN","uid":58},"free_bikes":4,"id":"4cbfb38364e35157d76449fa6d6f1fbe","latitude":55.59346,"longitude":12.98602,"name":"Kronborg","timestamp":"2023-10-18T09:12:27.341000Z"},{"empty_slots":12,"extra":{"address":"Cronmans v\u00e4g","status":"OPN","uid":59},"free_bikes":6,"id":"b5133a121ef35d0c521caeef46ca42bb","latitude":55.58941,"longitude":13.03188,"name":"Roseng\u00e5rds station","timestamp":"2023-10-18T09:12:27.345000Z"},{"empty_slots":18,"extra":{"address":"Bennets v\u00e4g","status":"OPN","uid":60},"free_bikes":6,"id":"a87b15d82398df84f961f5246754881e","latitude":55.58657,"longitude":13.03827,"name":"\u00d6rtag\u00e5rdstorget","timestamp":"2023-10-18T09:12:27.346000Z"},{"empty_slots":20,"extra":{"address":"Jungmansgatan","status":"OPN","uid":61},"free_bikes":4,"id":"f28a0e870b6a4e9851fe9cb27d14080d","latitude":55.60975,"longitude":12.98242,"name":"Kockums Park","timestamp":"2023-10-18T09:12:27.347000Z"},{"empty_slots":11,"extra":{"address":"Tritongatan","status":"OPN","uid":62},"free_bikes":15,"id":"753b173bc476f33acc3eb4e751c8bc47","latitude":55.60695,"longitude":12.98876,"name":"Tritongatan","timestamp":"2023-10-18T09:12:27.348000Z"},{"empty_slots":17,"extra":{"address":"Roseng\u00e5rd centrum parkeringsplats","status":"OPN","uid":63},"free_bikes":7,"id":"f038783c0b8ccc01120409cad74135f2","latitude":55.58513,"longitude":13.04527,"name":"Roseng\u00e5rd Centrum","timestamp":"2023-10-18T09:12:27.348000Z"},{"empty_slots":18,"extra":{"address":"L\u00f6nngatan","status":"OPN","uid":64},"free_bikes":6,"id":"cba95549e9da27018419a65ffefd6b6f","latitude":55.58057,"longitude":13.02825,"name":"Persborgs station","timestamp":"2023-10-18T09:12:27.349000Z"},{"empty_slots":13,"extra":{"address":"Rolfsgatan ","status":"OPN","uid":65},"free_bikes":5,"id":"f6f263eb6d7c753f7fe6ddafcf9cf5d4","latitude":55.58599,"longitude":13.01541,"name":"Sofielund","timestamp":"2023-10-18T09:12:27.350000Z"},{"empty_slots":17,"extra":{"address":"Fagerstagatan p-plats","status":"OPN","uid":66},"free_bikes":7,"id":"91d6862ceb0ade89f34091f820b990b0","latitude":55.58852,"longitude":13.02004,"name":"Enighet","timestamp":"2023-10-18T09:12:27.360000Z"},{"empty_slots":13,"extra":{"address":"Erik Perssons v\u00e4g","status":"OPN","uid":67},"free_bikes":17,"id":"467eb2f837e6df3cbe1abc48a168f642","latitude":55.58259,"longitude":12.98867,"name":"Atleticum","timestamp":"2023-10-18T09:12:27.361000Z"},{"empty_slots":14,"extra":{"address":"Stensj\u00f6gatan","status":"OPN","uid":68},"free_bikes":4,"id":"5f921c6d82a1f6ca1329428bc02f3f2d","latitude":55.58178,"longitude":12.98273,"name":"\u00c4rtholmen","timestamp":"2023-10-18T09:12:27.362000Z"},{"empty_slots":18,"extra":{"address":"Hyllie Boulevard","status":"OPN","uid":69},"free_bikes":10,"id":"4c759ac049e2b58e7990eaa4cea40e4c","latitude":55.5626,"longitude":12.97554,"name":"Hyllie Stations Torg","timestamp":"2023-10-18T09:12:27.362000Z"},{"empty_slots":26,"extra":{"address":"Arenagatan mem 11","status":"OPN","uid":70},"free_bikes":4,"id":"f3afb48aa3ba6383293f42083e385ee3","latitude":55.56424,"longitude":12.97745,"name":"Hyllie station \u00d6","timestamp":"2023-10-18T09:12:27.363000Z"},{"empty_slots":21,"extra":{"address":"Vattenparksgatan/Hyllie Boulevard","status":"OPN","uid":71},"free_bikes":3,"id":"97b8da79f1753e179e2bb000fb4d477e","latitude":55.56645,"longitude":12.97609,"name":"M\u00e4ssan","timestamp":"2023-10-18T09:12:27.369000Z"},{"empty_slots":14,"extra":{"address":"Svansj\u00f6gatan","status":"OPN","uid":72},"free_bikes":10,"id":"b4924e93de4a30bb848b64b40c74f830","latitude":55.58035,"longitude":12.97523,"name":"Bellevueg\u00e5rden","timestamp":"2023-10-18T09:12:27.370000Z"},{"empty_slots":22,"extra":{"address":"Sn\u00f6droppsgatan","status":"OPN","uid":73},"free_bikes":2,"id":"db48daed38aac2889127cdb2f92af1b8","latitude":55.57161,"longitude":12.98487,"name":"Holmatorget","timestamp":"2023-10-18T09:12:27.371000Z"},{"empty_slots":19,"extra":{"address":"Hylliev\u00e5ngsv\u00e4gen ","status":"OPN","uid":74},"free_bikes":5,"id":"85c7bc52b3ed2c281a45dc3f3d3d0270","latitude":55.57011,"longitude":12.97736,"name":"Hylliebadet","timestamp":"2023-10-18T09:12:27.371000Z"},{"empty_slots":20,"extra":{"address":"S\u00f6rb\u00e4cksgatan ","status":"OPN","uid":75},"free_bikes":4,"id":"43e7c026208b353a4ab9c2f6ef1212d9","latitude":55.57391,"longitude":12.97347,"name":"Kroksb\u00e4ck","timestamp":"2023-10-18T09:12:27.372000Z"},{"empty_slots":25,"extra":{"address":"Gr\u00f6nev\u00e5ngsstigen","status":"OPN","uid":76},"free_bikes":5,"id":"1d37ecbb29973fd84664abedbeef0925","latitude":55.59978,"longitude":12.95997,"name":"T-bryggan, Gr\u00f6nev\u00e5ngsstigen","timestamp":"2023-10-18T09:12:27.373000Z"},{"empty_slots":22,"extra":{"address":"Ribersborgsstigen","status":"OPN","uid":77},"free_bikes":2,"id":"1be33f9774fe9fc8a4237129e4dd25a2","latitude":55.5968,"longitude":12.94894,"name":"Limhamnsf\u00e4ltet (Sea-U)","timestamp":"2023-10-18T09:12:27.374000Z"},{"empty_slots":16,"extra":{"address":"V\u00e4stra Bernadottesgatan ","status":"OPN","uid":78},"free_bikes":8,"id":"d9f65ef32bae7602e9700655b41277b2","latitude":55.58208,"longitude":12.92103,"name":"Strandparken","timestamp":"2023-10-18T09:12:27.377000Z"},{"empty_slots":15,"extra":{"address":"Limhamnsv\u00e4gen ","status":"OPN","uid":79},"free_bikes":9,"id":"32a5606a9025e6fdbd2a306b4a9f7b8f","latitude":55.58613,"longitude":12.92931,"name":"Kalkugnsparken","timestamp":"2023-10-18T09:12:27.378000Z"},{"empty_slots":11,"extra":{"address":"Odengatan","status":"OPN","uid":80},"free_bikes":13,"id":"18b15c7f88ac6c17f63ee5f2d53668e5","latitude":55.58193,"longitude":12.9332,"name":"Limhamns centrum","timestamp":"2023-10-18T09:12:27.378000Z"},{"empty_slots":25,"extra":{"address":"Sommarv\u00e4gens p-plats","status":"OPN","uid":81},"free_bikes":5,"id":"a527114ab76f0be133aef476c2d39d65","latitude":55.57727,"longitude":12.91443,"name":"Sibbarps kallbadhus","timestamp":"2023-10-18T09:12:27.385000Z"},{"empty_slots":24,"extra":{"address":"gerlachsgatan","status":"OPN","uid":82},"free_bikes":3,"id":"42b3a1629cef9d420b64f5cc3be6d98c","latitude":55.60772,"longitude":13.03334,"name":"\u00d6sterv\u00e4rn","timestamp":"2023-10-18T09:12:27.389000Z"},{"empty_slots":17,"extra":{"address":"\u00d6stra F\u00e4ladsgatan/Lundav\u00e4gen","status":"OPN","uid":83},"free_bikes":7,"id":"b484984509e6a6da1479c2b6cc0411ea","latitude":55.61602,"longitude":13.04658,"name":"Segev\u00e5ng","timestamp":"2023-10-18T09:12:27.390000Z"},{"empty_slots":24,"extra":{"address":"Kirsebergs torg ","status":"OPN","uid":84},"free_bikes":0,"id":"ca2ad9982a64b050ec777e03901cfb4d","latitude":55.60927,"longitude":13.03665,"name":"Kirsebergs torg","timestamp":"2023-10-18T09:12:27.391000Z"},{"empty_slots":19,"extra":{"address":"Kronetorpsgatan","status":"OPN","uid":85},"free_bikes":4,"id":"6fe207887a257cf4d2cb28abd771c75b","latitude":55.61159,"longitude":13.04284,"name":"Kirsebergs bibliotek","timestamp":"2023-10-18T09:12:27.391000Z"},{"empty_slots":22,"extra":{"address":"Fritz Bauers gata","status":"OPN","uid":86},"free_bikes":2,"id":"2517ac74fb55affcc7e2a6ce38b09478","latitude":55.58782,"longitude":13.00507,"name":"Universitets sjukhuset / S\u00f6derv\u00e4rn V","timestamp":"2023-10-18T09:12:27.392000Z"},{"empty_slots":20,"extra":{"address":"Almtorget ","status":"OPN","uid":87},"free_bikes":4,"id":"2f403db649a1dd4611ba8509a1219b68","latitude":55.57738,"longitude":13.02357,"name":"Almtorget","timestamp":"2023-10-18T09:12:27.393000Z"},{"empty_slots":23,"extra":{"address":"Eriksf\u00e4ltsgatan/ Nydalatorget","status":"OPN","uid":88},"free_bikes":1,"id":"cb239ac94a7c7280970fb7b68dd6cd76","latitude":55.57406,"longitude":13.02065,"name":"Nydalatorget","timestamp":"2023-10-18T09:12:27.394000Z"},{"empty_slots":13,"extra":{"address":"S\u00f6derkullagatan mem 6 (p-plats)","status":"OPN","uid":89},"free_bikes":11,"id":"966fcd4d826062f8ab4b3b63742d0e92","latitude":55.57,"longitude":13.00954,"name":"S\u00f6derkullatorget","timestamp":"2023-10-18T09:12:27.395000Z"},{"empty_slots":23,"extra":{"address":"Hermodsdalstorget","status":"OPN","uid":90},"free_bikes":1,"id":"edfb13d79d40e08c1087d35b13f9a8f6","latitude":55.56661,"longitude":13.02079,"name":"Hermodsdal","timestamp":"2023-10-18T09:12:27.404000Z"},{"empty_slots":24,"extra":{"address":"Koralgatan","status":"OPN","uid":91},"free_bikes":0,"id":"9f68679ac8e4ee1838ec697df5af2325","latitude":55.56221,"longitude":13.01877,"name":"Lind\u00e4ngsbadet","timestamp":"2023-10-18T09:12:27.405000Z"},{"empty_slots":21,"extra":{"address":"Lind\u00e4ngsplan","status":"OPN","uid":92},"free_bikes":3,"id":"98a5aa18ea9c4a0a3a14f69088cbeff7","latitude":55.55954,"longitude":13.01301,"name":"Lind\u00e4ngens centrum","timestamp":"2023-10-18T09:12:27.406000Z"},{"empty_slots":19,"extra":{"address":"Orkesterg\u00e5ngen","status":"OPN","uid":93},"free_bikes":5,"id":"8c63d9134b3095a3f7931ba966780761","latitude":55.56214,"longitude":12.99054,"name":"Lindeborgs torg","timestamp":"2023-10-18T09:12:27.407000Z"},{"empty_slots":16,"extra":{"address":"Davidhallstorg  , v\u00e4stra sidan","status":"OPN","uid":94},"free_bikes":11,"id":"9cd07a23aecc206cf193ccea6c642639","latitude":55.59963,"longitude":12.99805,"name":"Davidhallstorg","timestamp":"2023-10-18T09:12:27.407000Z"},{"empty_slots":23,"extra":{"address":"Grophusstigen","status":"OPN","uid":95},"free_bikes":7,"id":"9c38474a710ad76d81c36d286b61b92e","latitude":55.54889,"longitude":12.99056,"name":"Sv\u00e5gertorps station","timestamp":"2023-10-18T09:12:27.408000Z"},{"empty_slots":18,"extra":{"address":"Helsingborgsgatan","status":"OPN","uid":96},"free_bikes":6,"id":"2ba4c11a83e53a3647622ca617d10712","latitude":55.59574,"longitude":13.01106,"name":"Helsingborgsgatan","timestamp":"2023-10-18T09:12:27.409000Z"},{"empty_slots":20,"extra":{"address":"M\u00f6llev\u00e5ngsgatan","status":"OPN","uid":97},"free_bikes":4,"id":"82f7bb468c4bfa927011819f9a442ccd","latitude":55.59275,"longitude":13.01159,"name":"Moriskan","timestamp":"2023-10-18T09:12:27.410000Z"},{"empty_slots":22,"extra":{"address":"Falsterbogatan ","status":"OPN","uid":98},"free_bikes":2,"id":"f59de83450b5d633ea5f27b3882cbd3f","latitude":55.59045,"longitude":13.01452,"name":"Falsterboplan","timestamp":"2023-10-18T09:12:27.421000Z"},{"empty_slots":15,"extra":{"address":"Industrigatan","status":"OPN","uid":99},"free_bikes":6,"id":"61b8e069091c5819a26789bf407d48e5","latitude":55.6017,"longitude":13.01976,"name":"Spiggans plats","timestamp":"2023-10-18T09:12:27.425000Z"},{"empty_slots":13,"extra":{"address":"\u00d6stra F\u00e4ladsgatan ","status":"OPN","uid":100},"free_bikes":8,"id":"d7878a094fb0dcf6cfc3b451032a3167","latitude":55.61168,"longitude":13.05207,"name":"Segepark","timestamp":"2023-10-18T09:12:27.426000Z"}]}}

